[
  {
    "name": "명동칼국수",
    "food": ["명동칼국수", "얼큰칼국수", "모밀국수", "모밀비빔국수"],
    "address": "서울특별시 마포구 상암동 상암IT타워",
    "lat": 37.5815659,
    "lon": 126.8860337
  },
  {
    "name": "오토김밥",
    "food": ["오토김밥", "스팸김밥", "고추냉이김밥", "순살닭강정"],
    "address": "서울특별시 마포구 상암동 상암IT타워",
    "lat": 37.5815659,
    "lon": 126.8860337
  },
  {
    "name": "김치도가",
    "food": ["고기듬뿍 김치찌개", "꽁치 김치찌개", "햄듬뿍 김치찌개"],
    "address": "서울특별시 마포구 상암동 상암IT타워",
    "lat": 37.5815659,
    "lon": 126.8860337
  },
  {
    "name": "청진생대구",
    "food": ["대구탕", "생태탕", "아구찜"],
    "address": "서울특별시 마포구 상암동 상암IT타워",
    "lat": 37.5815659,
    "lon": 126.8860337
  },
  {
    "name": "지코바치킨",
    "food": ["소금구이치킨", "양념구이치킨"],
    "address": "서울특별시 마포구 상암동 상암IT타워",
    "lat": 37.5815659,
    "lon": 126.8860337
  },
  {
    "name": "이선생 짜글이",
    "food": ["돼지감자짜글이", "우삼겹짜글이", "부대찌개"],
    "address": "서울특별시 마포구 상암동 상암IT타워",
    "lat": 37.5815659,
    "lon": 126.8860337
  },
  {
    "name": "상암회관",
    "food": ["콩국수", "김치전", "사골칼국수"],
    "address": "서울특별시 마포구 월드컵북로54길 17 사보이시티 ",
    "lat": 37.5816261,
    "lon": 126.888556
  },
  {
    "name": "상냥한 그놈의 밥상",
    "food": ["제육한상", "소불한상", "오삼한상", "생선한상"],
    "address": "서울특별시 마포구 월드컵북로54길 17 사보이시티 ",
    "lat": 37.5816261,
    "lon": 126.888556
  },
  {
    "name": "도락",
    "food": ["제주해장국", "돔베고기"],
    "address": "서울특별시 마포구 월드컵북로54길 17 사보이시티 ",
    "lat": 37.5816261,
    "lon": 126.888556
  },
  {
    "name": "탄탄면공방",
    "food": ["탄탄면", "얼큰탄탄국밥", "청양탄탄면", "사천탄탄면", "마라탄탄면", "치즈탄탄면"],
    "address": "서울특별시 마포구 월드컵북로54길 17 사보이시티 ",
    "lat": 37.5816261,
    "lon": 126.888556
  },
  {
    "name": "온돈부리",
    "food": ["가츠동", "에비동", "사케동", "연어뱃살 덮밥"],
    "address": "서울특별시 마포구 월드컵북로54길 25 푸르지오 시티",
    "lat": 37.5820627,
    "lon": 126.8890844
  },
  {
    "name": "이태리 부대찌개",
    "food": ["킹콩 부대찌개", "승리 부대찌개"],
    "address": "서울특별시 마포구 월드컵북로54길 25 푸르지오 시티",
    "lat": 37.5820627,
    "lon": 126.8890844
  },
  {
    "name": "여수 낭만식당",
    "food": ["여수돌문어삼합", "꼬막무침", "두꼬막무침"],
    "address": "서울특별시 마포구 월드컵북로54길 25 푸르지오 시티",
    "lat": 37.5820627,
    "lon": 126.8890844
  },
  {
    "name": "써브웨이",
    "food": ["다양한 샌드위치 "],
    "address": "서울특별시 마포구 월드컵북로54길 25 푸르지오 시티",
    "lat": 37.5820627,
    "lon": 126.8890844
  }
]
